City,Cloudiness,Country,Date,Humidity,Lat,Lng,Max_Temp,Wind_Speed
Constitucion,5,MX,1578141387,85,23.99,-104.67,35.01,4.7
Punta Arenas,40,CL,1578141387,66,-53.16,-70.91,51.8,13.87
Phuket,20,TH,1578141384,69,7.89,98.4,82.4,5.82
Teya,75,MX,1578141387,94,21.05,-89.07,73.99,3.36
Rikitea,100,PF,1578141387,82,-23.12,-134.97,77.65,15.48
Butaritari,53,KI,1578141387,80,3.07,172.79,84.29,15.5
Ilulissat,90,GL,1578141388,78,69.22,-51.1,17.6,5.82
Savannah Bight,72,HN,1578141388,75,16.45,-85.85,79.07,13.2
Kutum,0,SD,1578141388,17,14.2,24.66,76.08,10.27
Khatanga,95,RU,1578141388,93,71.98,102.47,-10.62,4.61
Fortuna,75,US,1578141388,100,40.6,-124.16,46.99,2.13
Sorgun,99,TR,1578141388,72,39.81,35.19,32.88,3.44
Mataura,81,NZ,1578141388,82,-46.19,168.86,48.99,4.0
Lata,100,IN,1578141388,99,30.78,78.62,12.36,8.05
Provideniya,0,RU,1578141388,77,64.42,-173.23,-14.19,9.1
Nome,1,US,1578141388,81,30.04,-94.42,48.99,6.93
Saint-Louis,82,SN,1578141388,16,16.03,-16.5,75.2,13.87
Jinxiang,84,CN,1578141388,52,35.07,116.31,44.74,4.03
Pueblo,1,US,1578141258,78,38.25,-104.61,34.0,4.47
Smoky Lake,100,CA,1578141388,93,54.11,-112.47,18.77,9.24
Cape Town,45,ZA,1578141197,61,-33.93,18.42,80.01,11.41
Hobart,75,AU,1578141225,61,-42.88,147.33,57.2,11.41
Gorontalo,100,ID,1578141126,92,0.54,123.06,75.56,6.04
Vila Velha,75,BR,1578141389,70,-3.71,-38.6,86.0,9.17
Arraial do Cabo,20,BR,1578141389,69,-22.97,-42.02,80.6,11.41
Avarua,32,CK,1578141389,88,-21.21,-159.78,77.0,5.82
Albany,90,US,1578141367,86,42.65,-73.75,41.0,2.24
Lebu,68,ET,1578141389,36,8.96,38.73,72.52,4.25
Churapcha,73,RU,1578141389,95,62.0,132.43,-27.35,4.41
Qaanaaq,50,GL,1578141389,95,77.48,-69.36,-41.89,3.51
Barrow,0,AR,1578141389,53,-38.31,-60.23,75.92,14.03
Saint George,20,GR,1578141389,35,39.45,22.34,57.2,4.7
Dikson,2,RU,1578141389,92,73.51,80.55,-8.99,15.3
Gotsu,47,JP,1578141389,59,35.01,132.22,50.43,22.68
Dingle,11,PH,1578141389,93,11.0,122.67,73.22,9.98
Torbay,90,CA,1578141390,92,47.66,-52.73,33.01,11.41
Tiksi,68,RU,1578141390,83,71.64,128.87,-17.59,10.87
San Patricio,27,PY,1578141390,62,-26.98,-56.83,78.48,5.08
Jamestown,38,AU,1578141390,53,-33.21,138.6,62.46,16.44
Vardo,90,US,1578141390,93,39.62,-77.74,52.0,5.19
Kargat,98,RU,1578141390,94,55.19,80.28,14.86,15.48
Puerto Ayora,90,EC,1578141390,78,-0.74,-90.35,75.2,3.36
Jalu,39,LY,1578141390,48,29.03,21.55,61.2,15.5
Broome,40,GB,1578141390,81,52.47,1.45,48.0,13.87
Vaini,11,IN,1578141390,47,15.34,74.49,80.6,6.93
Tutoia,90,BR,1578141390,88,-2.76,-42.27,82.4,2.24
Castro,40,CL,1578141390,66,-42.48,-73.76,55.4,3.36
Ushuaia,75,AR,1578141107,76,-54.81,-68.31,48.2,6.93
Cidreira,52,BR,1578141390,79,-30.17,-50.22,72.54,19.57
Hermanus,23,ZA,1578141391,69,-34.42,19.24,80.01,10.0
Ancud,17,CL,1578141391,66,-41.87,-73.83,55.4,3.36
Hohhot,0,CN,1578141391,62,40.81,111.65,19.4,6.71
Saint-Augustin,90,CA,1578141391,90,45.63,-73.98,32.0,4.7
Nikolskoye,90,RU,1578141391,74,59.7,30.79,34.0,15.66
Kruisfontein,68,ZA,1578141391,50,-34.0,24.73,86.56,15.84
Laguna,40,BZ,1578141391,100,16.17,-88.94,71.6,4.74
Ribeira Grande,40,PT,1578141391,88,38.52,-28.7,64.4,16.11
Airai,100,TL,1578141391,80,-8.93,125.41,69.4,4.23
Punto Fijo,48,VE,1578141391,80,11.69,-70.21,77.09,14.43
Kaduna,11,NG,1578141391,17,10.52,7.44,78.96,11.01
West Plains,75,US,1578141391,70,36.73,-91.85,35.01,13.87
Sabha,0,LY,1578141391,41,27.03,14.43,56.43,7.05
Santa Lucia,40,IT,1578141391,62,41.98,12.66,60.01,5.82
Hilo,40,US,1578141392,78,19.71,-155.08,71.6,6.93
Adrar,71,DZ,1578141392,29,27.87,-0.29,60.8,12.75
Itaueira,93,BR,1578141392,67,-7.6,-43.03,82.45,2.71
Yulara,99,AU,1578141392,93,-25.24,130.99,62.6,14.99
Saldanha,0,PT,1578141392,71,41.42,-6.55,46.92,5.57
Longyearbyen,20,NO,1578141392,60,78.22,15.63,5.0,9.17
Codrington,0,AU,1578141392,64,-28.95,153.24,75.2,11.41
Talnakh,75,RU,1578141392,77,69.49,88.39,1.4,20.13
Carnarvon,0,ZA,1578141392,6,-30.97,22.13,97.18,26.26
Montrose,20,GB,1578141392,93,56.71,-2.47,48.0,9.17
Mar del Plata,0,AR,1578141392,33,-46.43,-67.52,61.61,11.18
Bathsheba,40,BB,1578141392,65,13.22,-59.52,82.4,12.75
Tura,49,RU,1578141392,93,64.27,100.22,-12.32,5.46
Albanel,90,CA,1578141392,79,48.88,-72.44,24.8,9.17
Hoquiam,1,US,1578141393,65,46.98,-123.89,48.0,21.92
New Norfolk,75,AU,1578141393,70,-42.78,147.06,57.2,11.41
Atuona,28,PF,1578141393,76,-9.8,-139.03,80.55,17.87
Sitka,11,US,1578141393,87,37.17,-99.65,24.01,2.13
Vestmannaeyjar,90,IS,1578141214,100,63.44,-20.27,33.8,55.25
Hami,0,CN,1578141393,58,42.84,93.51,18.43,2.1
Tasiilaq,100,GL,1578141393,79,65.61,-37.64,21.2,21.92
Karratha,0,AU,1578141393,79,-20.74,116.85,85.01,20.36
Barmer,0,IN,1578141393,26,25.74,71.4,73.17,1.03
Hithadhoo,80,MV,1578141393,69,-0.6,73.08,83.95,6.26
Bambous Virieux,75,MU,1578141393,83,-20.34,57.76,81.0,8.05
Sault Sainte Marie,90,CA,1578141393,92,46.49,-84.36,28.4,1.88
Aklavik,5,CA,1578141393,67,68.22,-135.01,-23.8,2.24
Shahrud,1,IR,1578141393,56,36.42,54.97,38.7,7.29
Husavik,96,CA,1578141393,96,50.56,-96.99,26.01,1.81
Sioux Lookout,90,CA,1578141318,92,50.1,-91.92,21.2,4.7
Tuktoyaktuk,100,CA,1578141394,93,69.44,-133.03,-20.16,8.79
Oksfjord,75,NO,1578141394,92,70.24,22.35,26.6,40.26
Vaitape,100,PF,1578141394,78,-16.52,-151.75,81.03,10.78
East London,40,ZA,1578141394,88,-33.02,27.91,80.6,6.93
Iqaluit,90,CA,1578141394,84,63.75,-68.52,8.6,21.92
Solnechnyy,16,RU,1578141394,90,50.72,136.64,-11.25,1.59
Port Elizabeth,90,US,1578141394,93,39.31,-74.98,55.0,3.36
Bandarbeyla,90,SO,1578141394,77,9.49,50.81,78.33,13.27
Kabanjahe,40,ID,1578141394,88,3.1,98.49,80.6,2.24
Norman Wells,75,CA,1578141394,74,65.28,-126.83,-22.0,5.01
Ixtapa,40,MX,1578141394,93,20.71,-105.21,57.99,7.23
Narsaq,75,GL,1578141394,29,60.91,-46.05,33.8,5.82
Yellowknife,90,CA,1578141317,84,62.45,-114.38,0.0,5.82
Kushima,0,JP,1578141394,61,31.5,131.29,48.2,13.87
Upernavik,96,GL,1578141394,99,72.79,-56.15,-32.13,14.38
Acapulco,40,MX,1578141395,88,16.86,-99.88,73.4,3.36
Mbandaka,66,CD,1578141395,17,0.05,18.26,94.84,4.36
Camacha,40,PT,1578141395,68,33.08,-16.33,66.2,11.41
Kibala,2,TD,1578141395,23,9.11,18.35,84.2,6.93
Inuvik,5,CA,1578141395,67,68.36,-133.71,-23.8,2.24
Linda,1,US,1578141395,93,39.13,-121.55,51.8,6.93
Bull Savanna,92,JM,1578141395,85,17.89,-77.59,67.75,3.47
Umm Lajj,61,SA,1578141395,42,25.02,37.27,65.37,13.78
Tingi,85,TZ,1578141395,73,-11.3,35.03,80.6,1.63
Kapaa,75,US,1578141395,88,22.08,-159.32,73.99,19.46
Dubbo,17,AU,1578141395,17,-32.25,148.6,95.0,10.29
Isla Mujeres,40,MX,1578141395,94,21.23,-86.73,73.4,13.33
Binga,51,ZW,1578141395,64,-17.62,27.34,83.73,10.49
Bluff,0,AU,1578141395,64,-23.58,149.07,73.26,15.12
Port Alfred,75,ZA,1578141254,98,-33.59,26.89,72.0,1.01
Cabo San Lucas,0,MX,1578141396,78,22.89,-109.91,62.01,2.17
Port Lincoln,100,AU,1578141396,78,-34.72,135.86,59.45,17.87
Naze,56,NG,1578141396,25,5.43,7.07,84.2,9.17
Katherine,90,AU,1578141396,55,-14.47,132.26,86.0,12.75
Te Anau,100,NZ,1578141396,74,-45.41,167.72,47.14,7.45
Cascais,20,PT,1578141396,67,38.7,-9.42,61.0,8.05
Pacific Grove,90,US,1578141396,81,36.62,-121.92,53.01,6.93
Puerto Escondido,23,MX,1578141396,79,15.86,-97.07,68.7,3.36
Lorengau,100,PG,1578141396,74,-2.02,147.27,84.11,9.91
Oleksandrivka,14,UA,1578141396,66,48.97,32.24,38.91,10.09
Kodiak,1,US,1578141396,73,39.95,-94.76,30.2,11.41
Vicksburg,1,US,1578141311,87,32.35,-90.88,48.99,5.82
Omboue,99,GA,1578141396,65,-1.57,9.26,87.26,5.12
Artyom,0,RU,1578141396,71,43.36,132.19,3.2,2.24
Necochea,0,AR,1578141397,54,-38.55,-58.74,75.09,14.88
Porto Novo,40,BR,1578141397,73,-23.68,-45.44,71.6,1.39
Japura,97,ID,1578141397,94,-0.42,102.29,76.51,2.24
Pisco,75,PE,1578141397,30,-13.71,-76.2,71.6,4.7
Grand Gaube,75,MU,1578141214,83,-20.01,57.66,81.0,8.05
Busselton,0,AU,1578141397,34,-33.64,115.35,64.0,18.7
Gushikawa,90,JP,1578141397,88,26.35,127.87,66.2,5.82
Margate,75,AU,1578141397,61,-43.03,147.26,57.2,11.41
Fatehpur,0,PK,1578141397,31,31.18,71.21,62.47,6.06
Ibra,0,OM,1578141397,32,22.69,58.55,79.57,7.85
Georgetown,40,GY,1578141397,74,6.8,-58.16,80.6,6.93
Cockburn Town,47,TC,1578141397,80,21.46,-71.14,78.76,16.31
Kununurra,75,AU,1578141397,66,-15.77,128.74,86.0,8.05
Lagoa,0,PT,1578141397,62,37.14,-8.45,60.01,8.05
Odienne,17,CI,1578141398,9,9.51,-7.57,84.92,5.23
Ha Giang,58,VN,1578141398,99,22.83,104.99,59.32,3.6
Makaha,90,US,1578141398,100,21.47,-158.22,73.4,14.07
Lazaro Cardenas,5,MX,1578141398,85,28.39,-105.62,28.99,5.82
Thompson,90,CA,1578141398,83,55.74,-97.86,-4.0,2.24
Spassk,100,RU,1578141398,79,53.93,43.19,30.06,14.85
Lakhipur,9,IN,1578141398,84,26.03,90.3,60.94,2.71
Manaus,40,BR,1578141157,88,-3.13,-59.98,80.6,2.24
Ayr,55,AU,1578141398,78,-19.58,147.4,78.01,1.99
Setermoen,75,NO,1578141398,92,68.86,18.35,23.0,20.8
Terrasini,75,IT,1578141398,58,38.15,13.08,62.01,6.93
Derzhavinsk,100,KZ,1578141398,95,51.1,66.31,20.77,8.48
Souillac,20,FR,1578141398,76,45.6,-0.6,51.01,6.93
Marzuq,0,YE,1578141398,25,14.4,46.47,82.47,13.96
Charlestown,90,US,1578141398,100,41.38,-71.64,45.0,5.82
Phangnga,20,TH,1578141398,69,8.45,98.53,82.4,5.82
San Marcos,40,GT,1578141399,83,14.97,-91.79,77.0,5.03
Sao Joao da Barra,75,BR,1578141399,74,-21.64,-41.05,82.4,2.24
Balkhash,90,KZ,1578141399,92,46.84,74.98,23.0,6.71
Bredasdorp,10,ZA,1578141238,51,-34.53,20.04,80.6,11.41
Rocha,0,UY,1578141399,57,-34.48,-54.34,72.07,7.05
Saint-Philippe,90,CA,1578141399,92,45.36,-73.48,35.6,3.8
Pouembout,64,NC,1578141399,80,-21.12,164.9,70.18,3.76
Khandyga,2,RU,1578141399,97,62.65,135.58,-30.55,1.21
Benjamin Constant,100,BR,1578141147,94,-4.38,-70.03,77.0,0.85
Elizabeth City,90,US,1578141399,100,36.3,-76.22,60.8,4.7
Vila Franca do Campo,40,PT,1578141399,82,37.72,-25.43,64.4,11.41
Orkney,19,ZA,1578141399,23,-26.98,26.67,91.98,11.03
Likasi,100,CD,1578141399,80,-10.99,26.74,70.32,5.3
Nadym,97,RU,1578141399,94,65.53,72.51,13.24,14.5
Taltal,49,CL,1578141400,77,-25.41,-70.49,60.4,2.89
Russell,1,US,1578141400,85,38.9,-98.86,25.0,8.05
Fujieda,20,JP,1578141400,94,34.93,138.23,48.0,8.05
Saskylakh,94,RU,1578141400,97,71.97,114.09,-19.8,6.91
Chokurdakh,13,RU,1578141400,99,70.62,147.9,-18.15,2.15
Klaksvik,100,FO,1578141400,69,62.23,-6.59,35.6,14.99
Nioro,62,GM,1578141400,8,13.79,-15.05,83.03,15.21
San Borja,92,BO,1578141400,93,-14.86,-66.75,76.28,0.56
Petropavlovsk-Kamchatskiy,75,RU,1578141400,92,53.05,158.65,23.0,6.71
Carbonia,40,IT,1578141400,62,39.17,8.53,60.8,17.22
Namibe,90,AO,1578141400,94,-15.19,12.15,75.2,5.01
Nuevo Progreso,1,US,1578141400,81,26.05,-97.95,52.0,3.36
Russkaya Polyana,93,RU,1578141400,88,53.78,73.88,20.93,16.35
Sobolevo,100,RU,1578141400,97,54.43,31.9,34.88,12.24
Tomatlan,16,MX,1578141401,60,19.93,-105.25,56.41,3.83
Hofn,100,IS,1578141401,97,64.25,-15.21,34.68,24.67
Grand Forks,90,US,1578141401,92,47.91,-97.06,15.8,4.83
Muncar,100,ID,1578141401,83,-8.43,114.34,80.51,12.71
Salalah,20,OM,1578141401,58,17.01,54.1,82.4,12.75
Yarmouth,90,CA,1578141401,93,43.84,-66.12,39.2,8.05
Bollnas,0,SE,1578141401,49,61.35,16.39,37.99,8.99
Avallon,43,FR,1578141401,73,47.49,3.91,43.59,6.13
Bethel,1,US,1578141369,76,60.79,-161.76,-11.2,8.05
Tilichiki,62,RU,1578141401,67,60.47,166.1,-0.54,4.76
Caravelas,100,BR,1578141401,84,-17.73,-39.27,76.51,7.47
Thinadhoo,100,MV,1578141401,65,0.53,72.93,83.84,4.7
Kysyl-Syr,100,RU,1578141401,97,63.9,122.77,-26.3,6.62
Tazovskiy,91,RU,1578141401,94,67.47,78.7,2.77,12.01
Klaeng,0,TH,1578141401,68,12.78,101.65,87.01,2.48
Batticaloa,42,LK,1578141401,76,7.71,81.69,80.04,6.44
Kristiansund,75,NO,1578141402,59,63.12,7.73,37.4,36.91
Along,76,IN,1578141402,98,28.17,94.8,52.3,0.69
Fjerritslev,18,DK,1578141402,63,57.08,9.27,43.0,7.0
Nyurba,97,RU,1578141402,98,63.29,118.35,-16.83,3.2
Itarema,100,BR,1578141402,64,-2.92,-39.92,85.46,9.04
Namatanai,79,PG,1578141402,71,-3.66,152.44,84.65,2.39
High Level,90,CA,1578141402,92,58.52,-117.13,12.2,6.93
Broken Hill,2,AU,1578141402,32,-31.97,141.45,80.6,24.16
Bonavista,13,CA,1578141402,84,48.65,-53.11,23.07,10.04
Rexburg,40,US,1578141402,92,43.82,-111.79,12.2,5.82
Oshakati,40,NA,1578141402,55,-17.78,15.7,86.0,6.93
Batemans Bay,35,AU,1578141402,71,-35.71,150.18,68.0,1.01
Ahipara,59,NZ,1578141402,90,-35.17,173.16,57.0,18.41
Nasice,68,HR,1578141402,100,45.49,18.09,39.99,8.05
Chuy,0,UY,1578141403,59,-33.69,-53.46,72.59,5.08
Cherskiy,19,RU,1578141403,60,68.75,161.3,-2.0,6.2
Porbandar,0,IN,1578141403,52,21.64,69.61,75.61,16.67
Araouane,33,ML,1578141403,16,18.9,-3.53,69.17,15.26
Perry,90,US,1578141403,100,30.12,-83.58,69.8,8.05
Dicabisagan,100,PH,1578141403,84,17.08,122.42,74.34,13.06
Ponta Delgada,40,PT,1578141403,82,37.73,-25.67,64.4,11.41
Beyneu,60,KZ,1578141403,63,45.32,55.19,31.05,1.97
Paamiut,100,GL,1578141403,52,61.99,-49.67,28.04,4.9
Prince Rupert,75,CA,1578141118,73,54.32,-130.32,35.6,10.29
Charleville-Mezieres,37,FR,1578141403,86,49.77,4.72,42.01,11.41
Luganville,65,VU,1578141404,94,-15.51,167.18,72.72,2.53
Baijiantan,99,CN,1578141404,90,45.63,85.18,11.61,3.49
Raahe,20,FI,1578141404,92,64.68,24.47,24.8,12.75
Esperance,0,AU,1578141404,59,-33.86,121.89,60.8,13.87
Dalvik,11,SE,1578141404,64,57.79,14.13,37.99,13.87
Novyy Urengoy,91,RU,1578141404,93,66.08,76.63,8.04,14.45
Mahebourg,75,MU,1578141404,83,-20.41,57.7,81.0,8.05
Ho Chi Minh City,40,VN,1578141182,65,10.78,106.7,82.4,5.82
Zhigansk,100,RU,1578141404,93,66.77,123.37,-23.49,12.39
Sungaipenuh,90,ID,1578141404,97,-2.08,101.38,65.95,1.79
Arlit,0,NE,1578141405,16,18.74,7.39,70.84,14.81
Luderitz,0,NA,1578141405,44,-26.65,15.16,80.6,8.05
Touros,75,BR,1578141405,58,-5.2,-35.46,86.0,12.75
Ovalle,0,CL,1578141405,57,-30.6,-71.2,64.4,4.16
Praya,100,ID,1578141405,92,-8.71,116.27,69.58,10.27
Flinders,90,AU,1578141405,53,-34.58,150.85,73.99,17.22
Manzhouli,0,CN,1578141405,79,49.6,117.43,6.98,4.85
Severo-Kurilsk,98,RU,1578141405,98,50.68,156.12,26.13,35.39
Ponnani,20,IN,1578141405,74,10.77,75.93,84.2,8.05
Deputatskiy,9,RU,1578141405,93,69.3,139.9,-14.78,0.98
Leningradskiy,35,RU,1578141405,70,69.38,178.42,-8.57,4.68
Pauini,100,BR,1578141405,97,-7.71,-67.0,73.11,1.07
Davidson,41,CA,1578141406,85,51.26,-105.98,30.0,8.99
Manokwari,100,ID,1578141406,85,-0.87,134.08,74.05,8.5
Kupang,40,ID,1578141406,88,-10.16,123.6,78.8,16.11
Yarada,75,IN,1578141406,83,17.65,83.27,75.2,9.17
Gannan,0,CN,1578141406,77,47.92,123.49,7.12,5.84
Muros,75,ES,1578141406,93,42.77,-9.06,55.99,5.82
Pevek,0,RU,1578141406,64,69.7,170.27,-3.98,4.76
Jacareacanga,100,BR,1578141406,96,-6.22,-57.76,72.99,2.33
Warmbad,40,DE,1578141406,91,50.67,13.08,42.01,17.22
Saint-Pierre,20,FR,1578141406,87,48.95,4.24,46.4,11.41
Kristinehamn,25,SE,1578141406,51,59.31,14.11,37.4,14.99
Buraydah,40,SA,1578141406,56,26.33,43.97,69.8,2.24
Tamale,0,GH,1578141406,10,9.4,-0.84,84.92,10.09
Sistranda,40,NO,1578141406,74,63.73,8.83,37.0,26.4
Manicore,100,BR,1578141407,97,-5.81,-61.3,73.4,3.49
San Juan de los Morros,7,VE,1578141407,83,9.91,-67.35,67.17,1.45
Maniwaki,68,CA,1578141407,90,46.38,-75.98,20.08,4.76
Port Keats,99,AU,1578141407,77,-14.25,129.55,83.64,8.61
Gat,44,SN,1578141407,14,14.69,-16.54,77.0,18.34
Tabas,100,IR,1578141407,54,33.6,56.92,53.6,2.24
Banda Aceh,0,ID,1578141407,81,5.56,95.32,76.44,7.58
Finnsnes,75,NO,1578141407,92,69.23,17.98,28.99,20.8
Amapa,40,HN,1578141407,88,15.09,-87.97,73.99,3.36
Rio Grande,75,BR,1578141399,78,-32.03,-52.1,75.2,9.17
Tessalit,0,ML,1578141407,17,20.2,1.01,69.39,17.76
Beian,40,NO,1578141407,74,63.66,9.57,37.0,26.4
Matamoros,1,US,1578141407,66,25.87,-97.51,51.01,6.93
Vanimo,100,PG,1578141408,78,-2.67,141.3,83.25,24.11
Kidal,0,ML,1578141408,17,18.44,1.41,68.59,18.88
Bowen,100,AU,1578141408,69,-20.01,148.25,77.0,5.82
Altamont,90,CA,1578141408,100,49.4,-98.5,25.0,5.82
Maragogi,100,BR,1578141283,77,-9.01,-35.22,79.34,11.95
Anadyr,0,RU,1578141408,66,64.73,177.51,-32.8,8.95
Kulhudhuffushi,31,MV,1578141408,74,6.62,73.07,83.44,8.25
Ponta do Sol,86,BR,1578141408,86,-20.63,-46.0,72.28,7.58
Chikwawa,40,MW,1578141408,66,-16.03,34.79,86.0,11.41
Sao Felix do Xingu,100,BR,1578141408,96,-6.64,-51.99,73.22,1.54
Mandalgovi,30,MN,1578141408,71,45.76,106.27,11.95,7.36
Bagdarin,32,RU,1578141408,84,54.44,113.59,6.55,3.09
San Marco in Lamis,75,IT,1578141408,66,41.71,15.64,55.4,13.87
Acireale,18,IT,1578141162,48,37.61,15.17,62.6,5.82
Kaitangata,99,NZ,1578141409,72,-46.28,169.85,50.13,11.92
Ratnagiri,0,IN,1578141409,62,16.98,73.3,74.57,5.99
Santa Isabel,1,MX,1578141409,56,32.63,-115.58,44.6,4.7
Shingu,21,JP,1578141409,62,33.72,135.99,50.4,19.93
Buchanan,0,LR,1578141409,66,5.88,-10.05,84.2,11.41
Placido de Castro,100,BR,1578141409,99,-10.34,-67.19,72.54,1.1
Bubaque,23,GW,1578141409,42,11.28,-15.83,75.56,15.28
Geraldton,90,CA,1578141409,92,49.72,-86.95,12.2,2.24
Faanui,100,PF,1578141409,78,-16.48,-151.75,81.03,10.78
Padang,90,ID,1578141409,97,-0.92,100.36,71.55,0.29
Lucea,20,JM,1578141409,69,18.44,-78.17,78.8,8.05
Usinsk,100,RU,1578141410,97,66.0,57.56,33.06,21.79
Port Hardy,40,CA,1578141410,93,50.7,-127.42,35.6,6.93
Road Town,40,VG,1578141410,74,18.42,-64.62,80.6,9.17
Matara,79,BI,1578141410,79,-3.48,29.48,69.6,5.26
Boddam,75,GB,1578141410,100,57.47,-1.78,43.0,3.36
Little Current,90,CA,1578141410,92,45.98,-81.93,28.4,4.7
Brae,20,GB,1578141410,74,60.4,-1.35,35.6,4.7
Kathu,24,ZA,1578141410,30,-27.7,23.05,95.0,3.0
Simpsonville,90,US,1578141410,100,34.74,-82.25,57.99,5.82
Vao,68,EE,1578141410,70,59.1,26.19,33.8,11.77
Samarai,100,PG,1578141411,81,-10.62,150.67,78.75,1.03
Yashkul,3,RU,1578141411,71,46.17,45.34,38.59,7.52
Nanortalik,100,GL,1578141411,96,60.14,-45.24,28.24,3.06
Meulaboh,0,ID,1578141411,72,4.14,96.13,83.66,4.12
Perelyub,100,RU,1578141411,92,51.87,50.37,26.83,15.97
Urcos,75,PE,1578141411,87,-13.69,-71.62,48.2,2.24
Turner,75,US,1578141411,86,44.84,-122.95,43.0,12.75
Rio Gallegos,20,AR,1578141411,57,-51.62,-69.22,51.8,19.46
Hamilton,90,CA,1578141369,96,43.26,-79.87,34.0,8.05
Kerman,90,IR,1578141411,71,30.29,57.06,50.0,4.7
Clyde River,1,CA,1578141411,67,70.47,-68.59,-27.4,5.82
Tuatapere,100,NZ,1578141411,82,-46.13,167.69,48.99,4.0
Lukow,65,PL,1578141412,48,51.93,22.38,44.01,19.64
Coria,0,ES,1578141412,70,39.98,-6.54,51.01,3.0
Tabasalu,75,EE,1578141412,69,59.43,24.54,39.99,20.8
Victoria,75,BN,1578141365,78,5.28,115.24,82.4,11.41
Inhambane,20,MZ,1578141412,55,-23.87,35.38,91.4,11.41
Bhag,27,PK,1578141412,25,29.04,67.82,68.52,4.34
Batagay-Alyta,8,RU,1578141412,93,67.8,130.41,-24.21,3.91
Yumen,61,CN,1578141412,58,40.29,97.04,19.24,3.0
Aksarka,99,RU,1578141186,94,66.56,67.8,14.81,11.63
Malindi,75,KE,1578141412,66,-3.22,40.12,87.8,12.75
Jumla,83,NP,1578141412,87,29.28,82.18,27.3,3.96
Tigre,2,AR,1578141412,73,-34.42,-58.58,77.0,9.17
Minab,40,IR,1578141412,65,27.15,57.07,78.8,6.93
Kearney,20,US,1578141166,79,40.7,-99.08,28.4,6.93
Koumac,80,NC,1578141413,81,-20.56,164.28,70.88,5.26
Havelock,90,US,1578141182,100,34.88,-76.9,73.4,16.11
Gizo,75,IL,1578141413,87,31.8,34.94,53.01,10.29
Shubarkuduk,97,KZ,1578141413,96,49.15,56.49,21.85,6.17
Bafra,75,TR,1578141413,75,41.57,35.91,46.4,9.17
Madras,75,US,1578141413,82,44.63,-121.13,41.0,6.93
Egvekinot,0,RU,1578141413,67,66.32,-179.17,-12.44,11.36
Dortyol,75,TR,1578141413,87,36.86,36.23,51.01,5.66
Khasan,0,RU,1578141413,72,42.43,130.64,20.46,9.73
Eckernforde,20,DE,1578141413,70,54.47,9.83,43.0,19.46
Basco,90,US,1578141413,93,40.33,-91.2,34.0,10.29
Acevedo,61,CO,1578141413,89,1.81,-75.89,58.01,2.46
Virginia Beach,90,US,1578140695,93,36.85,-75.98,60.01,9.17
Tigil,0,RU,1578141185,72,57.8,158.67,23.07,15.73
Isangel,9,VU,1578141414,80,-19.55,169.27,76.06,14.94
Half Moon Bay,90,US,1578141243,87,37.46,-122.43,54.0,9.17
Hongjiang,96,CN,1578141414,85,27.21,109.83,46.53,1.86
Lamu,34,CN,1578141414,53,35.77,102.37,24.51,3.74
Lavrentiya,0,RU,1578141414,94,65.58,-170.99,-14.03,10.87
Siguiri,0,GN,1578141414,8,11.42,-9.17,80.64,7.81
Kaili,97,ID,1578141414,89,-3.46,120.21,63.43,1.54
Yaan,48,NG,1578141414,14,7.38,8.57,88.3,11.41
Weligama,53,LK,1578141414,78,5.97,80.42,82.02,7.07
Baghdad,90,IQ,1578141391,58,33.3,44.38,57.2,18.34
Burnie,100,AU,1578141414,61,-41.05,145.91,55.99,7.0
Jaisinghnagar,0,IN,1578141414,57,23.63,78.57,62.11,5.5
Port Blair,2,IN,1578141414,75,11.67,92.75,81.7,12.68
Henties Bay,51,NA,1578141415,83,-22.12,14.28,66.0,3.0
Juneau,90,US,1578141415,73,58.3,-134.42,24.8,6.93
Tuljapur,41,IN,1578141415,31,18.01,76.07,82.31,4.83
Muravlenko,96,RU,1578141415,91,63.79,74.5,15.89,20.04
Whitehorse,90,CA,1578141415,84,60.72,-135.06,1.4,4.7
Mackenzie,1,CA,1578141415,68,55.34,-123.09,30.2,11.41
Prince George,20,CA,1578141415,74,53.92,-122.75,33.8,11.41
Santiago,53,PH,1578141318,94,16.69,121.54,69.1,2.73
Xai-Xai,1,MZ,1578141415,37,-25.04,33.64,97.36,11.12
Palu,100,ID,1578141415,99,-0.9,119.87,68.22,0.63
Santa Vitoria do Palmar,0,BR,1578141415,59,-33.52,-53.37,72.59,5.08
Waipawa,59,NZ,1578141415,82,-39.94,176.59,46.99,1.28
San Cristobal,67,HN,1578141415,96,14.68,-86.92,60.12,1.99
Sao Filipe,2,CV,1578141416,66,14.9,-24.5,73.85,12.64
Liusha,100,CN,1578141416,88,27.21,108.59,41.31,4.74
Lucapa,100,AO,1578141416,88,-8.42,20.74,74.5,2.51
Urusha,79,RU,1578141416,95,54.05,122.9,-11.02,1.52
Sinnamary,55,GF,1578141416,83,5.38,-52.96,79.59,15.57
Stalowa Wola,90,PL,1578141416,72,50.57,22.06,42.01,12.75
Mount Isa,76,AU,1578141416,36,-20.73,139.49,91.4,8.05
Homer,40,US,1578141416,85,59.64,-151.54,17.01,7.96
Kiunga,100,PG,1578141416,90,-6.12,141.3,75.47,0.94
Antalaha,63,MG,1578141416,74,-14.9,50.28,83.93,9.19
Palmas,75,BR,1578141416,94,-10.18,-48.33,77.0,5.14
Portland,90,US,1578141290,80,43.66,-70.25,39.0,8.97
Otradnoye,90,RU,1578141416,92,59.77,30.8,34.0,15.66
Vila do Maio,69,CV,1578141417,54,15.13,-23.22,78.8,18.34
Moose Factory,90,CA,1578141417,92,51.26,-80.61,5.0,5.82
Pangoa,100,PE,1578141417,96,-12.12,-73.0,70.41,0.49
Iskateley,82,RU,1578141417,80,67.68,53.15,24.94,22.24
Concordia,0,AR,1578141417,78,-31.4,-58.02,72.0,6.93
Iranshahr,75,IR,1578141417,46,27.21,60.69,73.4,4.7
Kavieng,44,PG,1578141417,67,-2.57,150.8,85.95,2.86
Atlantic Beach,1,US,1578141417,88,30.33,-81.4,73.4,16.11
Makakilo City,90,US,1578141286,100,21.35,-158.09,73.4,14.07
Nurota,90,UZ,1578141417,100,40.56,65.69,37.4,6.93
Alberton,40,ZA,1578141417,45,-26.25,28.13,89.01,9.17
Keffi,12,NG,1578141417,13,8.85,7.88,93.45,3.83
Nelson Bay,0,AU,1578141417,33,-32.72,152.14,89.6,8.05
Vanavara,62,RU,1578141417,94,60.35,102.28,3.76,4.65
Kieta,100,PG,1578141418,74,-6.22,155.63,82.94,5.32
Fort Payne,90,US,1578141418,93,34.44,-85.72,55.4,4.7
Henderson,1,US,1578141418,80,36.04,-114.98,39.99,1.99
Hopkinsville,90,US,1578141358,100,36.87,-87.49,39.99,5.82
Diapaga,7,BF,1578141418,14,12.07,1.79,77.61,11.05
Houma,100,CN,1578141418,59,35.63,111.36,39.58,5.57
Shimoda,20,JP,1578141418,61,34.7,138.93,44.01,8.05
Umm Bab,40,QA,1578141418,21,25.21,50.81,84.2,20.8
Turukhansk,100,RU,1578141418,93,65.8,87.96,7.43,14.03
Coahuayana,63,MX,1578141418,64,18.62,-100.35,64.4,2.42
Atambua,100,ID,1578141418,78,-9.11,124.89,77.49,0.83
Sale,0,AU,1578141325,72,-38.11,147.06,61.0,1.99
Kloulklubed,75,PW,1578141418,74,7.04,134.26,80.6,8.05
Nueva Granada,37,CO,1578141419,79,9.8,-74.39,74.26,6.33
Hasaki,75,JP,1578141419,74,35.73,140.83,39.0,5.82
Dafeng,32,CN,1578141419,75,33.2,120.46,41.14,4.36
Tevriz,100,RU,1578141419,90,57.51,72.4,18.48,11.03
Naryan-Mar,82,RU,1578141419,80,67.67,53.09,24.94,22.24
Srednekolymsk,87,RU,1578141419,67,67.46,153.71,0.27,3.04
Tamasopo,98,MX,1578141419,73,21.92,-99.39,49.66,1.48
Hovd,40,NO,1578141419,74,63.83,10.7,37.0,26.4
Wanaka,100,NZ,1578141419,59,-44.7,169.14,53.01,3.0
Egersund,40,NO,1578141419,64,58.45,6.0,39.99,19.46
Ormond Beach,90,US,1578141419,91,29.29,-81.06,72.0,9.17
Batagay,0,RU,1578141419,95,67.65,134.64,-25.83,0.63
Vostok,48,RU,1578141419,97,46.45,135.83,-11.88,5.37
Ketchikan,20,US,1578141419,86,55.34,-131.65,28.4,4.7
Haines Junction,97,CA,1578141419,98,60.75,-137.51,-12.01,3.11
Taoudenni,94,ML,1578141420,16,22.68,-3.98,69.94,11.32
Muli,100,CN,1578141420,86,28.08,109.56,40.15,5.01
Corinto,40,CO,1578141420,88,3.17,-76.26,69.8,4.7
Antofagasta,75,CL,1578141343,82,-23.65,-70.4,66.2,6.93
Port Macquarie,0,AU,1578141420,57,-31.43,152.91,77.0,6.93
Hambantota,20,LK,1578141420,84,6.12,81.12,86.0,5.82
Los Llanos de Aridane,20,ES,1578141420,60,28.66,-17.92,69.8,8.05
San Quintin,0,PH,1578141420,76,17.54,120.52,71.24,6.69
Douentza,15,ML,1578141420,12,15.01,-2.95,73.6,14.29
Glendive,1,US,1578141420,86,47.11,-104.71,32.0,10.29
Karasjok,75,NO,1578141420,92,69.47,25.52,24.8,27.51
Matagami,2,NG,1578141420,15,9.67,8.4,91.27,3.33
Sangar,94,RU,1578141420,93,63.92,127.47,-15.75,8.72
Chililabombwe,100,ZM,1578141421,73,-12.37,27.84,75.79,5.17
Aden,34,YE,1578141421,52,12.79,45.03,82.17,13.22
Teguise,20,ES,1578141421,72,29.06,-13.56,66.2,18.34
Opole Lubelskie,75,PL,1578141421,86,51.15,21.97,42.01,16.11
Cabedelo,40,BR,1578141421,62,-6.97,-34.84,84.2,8.05
Chase,1,US,1578141421,85,38.35,-98.35,27.0,4.7
Paracin,88,RS,1578141421,75,43.86,21.41,41.0,5.44
Minas Novas,100,BR,1578141421,98,-17.22,-42.59,68.79,3.09
Shellbrook,90,CA,1578141421,92,53.22,-106.39,19.4,12.75
Bima,100,ID,1578141421,96,-8.45,118.73,74.37,1.41
Acari,97,BR,1578141421,57,-6.44,-36.64,79.79,10.58
Sola,100,TZ,1578141421,48,-3.17,33.8,82.56,10.76
Brindisi,51,IT,1578141421,62,40.63,17.94,57.99,16.11
Chapleau,90,CA,1578141422,100,47.85,-83.4,17.6,3.36
Marsaxlokk,40,MT,1578141422,67,35.84,14.54,59.0,20.8
Havoysund,75,NO,1578141422,92,71.0,24.66,21.2,40.26
Tucuman,100,PE,1578141422,82,-17.17,-70.89,57.99,5.12
Garowe,7,SO,1578141422,36,8.41,48.48,86.27,10.63
Olinda,90,AU,1578141422,67,-37.84,145.39,61.0,13.87
Pringsewu,100,ID,1578141422,95,-5.36,104.98,75.2,2.33
Hervey Bay,0,AU,1578141422,69,-25.3,152.85,75.2,5.82
Conway,90,US,1578141422,86,35.09,-92.44,44.6,8.05
Bogalusa,40,US,1578141422,87,30.79,-89.85,57.2,3.36
Bayburt,100,TR,1578141422,88,40.26,40.22,24.08,5.32
Nasirabad,0,IN,1578141422,43,26.3,74.74,63.46,1.97
General Roca,19,AR,1578141422,36,-39.03,-67.58,78.8,5.82
Pyinmana,0,MM,1578141422,67,19.74,96.21,71.89,1.16
Fougamou,84,GA,1578141422,58,-1.22,10.59,88.92,2.77
Winnemucca,1,US,1578141423,55,40.97,-117.74,39.2,13.87
Emilio Carranza,81,MX,1578141423,64,19.97,-96.61,70.02,21.68
Helena,1,US,1578141281,74,46.59,-112.04,41.0,3.36
Verkh-Usugli,0,RU,1578141423,89,52.7,115.17,4.57,3.56
Ostrovnoy,84,RU,1578141423,89,68.05,39.51,28.31,25.75
Cambara,16,BR,1578141423,71,-23.05,-50.07,75.4,7.87
Cambrai,63,AU,1578141423,61,-34.65,139.28,64.0,5.01
Verkhnevilyuysk,100,RU,1578141423,98,63.45,120.31,-18.69,4.27
Navoi,44,IT,1578141423,57,46.17,11.83,54.0,5.82
Erzin,75,TR,1578141423,71,36.95,36.2,53.6,3.36
Orje,22,NO,1578141423,41,59.48,11.66,39.2,12.75
Sorland,75,NO,1578141424,86,67.67,12.69,28.4,13.87
Coihaique,40,CL,1578141424,47,-45.58,-72.07,55.4,8.05
Moron,41,HT,1578141424,79,18.56,-74.26,76.71,4.41
Comodoro Rivadavia,20,AR,1578141424,34,-45.87,-67.48,66.2,11.41
Khanpur,7,PK,1578141424,23,28.65,70.66,72.32,7.67
Rawson,12,AR,1578141424,79,-43.3,-65.11,58.98,20.62
Chapais,90,CA,1578141424,85,49.78,-74.86,12.2,3.36
Opuwo,100,NA,1578141424,51,-18.06,13.84,81.0,9.1
Rovenki,98,RU,1578141424,87,49.91,38.89,34.54,15.12
Luangwa,99,MZ,1578141424,48,-15.62,30.4,91.65,7.25
Teguldet,100,RU,1578141424,91,57.31,88.17,12.11,9.84
Viedma,17,AR,1578141299,33,-40.81,-62.99,73.78,20.18
La Reforma,0,MX,1578141424,93,25.08,-108.06,53.01,3.0
Tshikapa,91,CD,1578141425,68,-6.42,20.79,84.74,2.71
Guerrero Negro,0,MX,1578141425,46,27.97,-114.04,54.97,1.99
Leiyang,60,CN,1578141425,81,26.42,112.85,50.31,4.56
Pierrelatte,75,FR,1578141329,66,44.38,4.7,55.99,26.4
Sungairaya,100,ID,1578141425,87,0.7,108.9,77.99,7.29
Alyangula,56,AU,1578141425,78,-13.85,136.42,82.4,3.36
Great Yarmouth,40,GB,1578141425,81,52.61,1.73,48.0,13.87
Mtwara,20,TZ,1578141425,56,-10.28,40.18,87.71,9.42
Kokkola,100,FI,1578141425,72,63.84,23.13,35.01,11.41
Celestun,93,MX,1578141425,80,20.87,-90.4,75.18,30.38
Kahului,75,US,1578141425,88,20.89,-156.47,73.4,14.99
Liverpool,40,GB,1578141252,81,53.41,-2.98,50.0,18.34
Guatire,20,VE,1578141426,74,10.47,-66.54,82.4,5.82
Puerto Maldonado,75,PE,1578141426,100,-12.59,-69.19,33.8,4.7
Chekhov,90,RU,1578141426,92,55.14,37.45,33.01,11.18
Bakel,35,SN,1578141426,9,14.9,-12.46,80.01,19.04
Yining,100,CN,1578141426,93,29.04,114.56,47.55,2.04
Hefei,90,CN,1578141426,87,31.82,117.22,46.4,6.71
Leh,100,IN,1578141426,63,34.16,77.58,5.41,0.96
Saiha,93,IN,1578141426,98,22.49,92.98,59.41,0.85
Niquelandia,100,BR,1578141426,93,-14.47,-48.46,71.89,8.34
Cannes,36,FR,1578141426,55,43.55,7.01,62.6,4.81
Lagos,43,NG,1578141380,35,6.46,3.39,87.8,4.7
Camopi,91,GF,1578141426,79,3.17,-52.33,77.45,4.72
Shelburne,90,CA,1578141426,94,44.08,-80.2,33.01,5.41
Blagoyevo,100,RU,1578141426,86,63.37,47.92,28.38,9.89
San Policarpo,53,PH,1578141427,80,12.18,125.51,80.44,15.26
Luanda,90,AO,1578141427,94,-8.83,13.24,75.2,5.82
Aykhal,100,RU,1578141427,75,65.95,111.51,-16.6,2.24
Seoul,1,KR,1578141308,44,37.57,126.98,37.4,3.36
Camaqua,37,BR,1578141427,79,-30.85,-51.81,72.88,9.28
Rayadrug,47,IN,1578141427,28,14.7,76.87,88.32,3.0
Mazamari,100,PE,1578141427,95,-11.33,-74.53,62.28,0.69
Liwale,100,TZ,1578141427,69,-9.8,37.92,82.45,6.26
Nizwa,0,OM,1578141427,35,22.93,57.53,71.56,6.98
Alanya,20,TR,1578141427,51,36.55,32.0,59.0,6.93
Rauma,40,FI,1578141427,60,61.13,21.5,39.2,16.11
Autun,90,FR,1578141427,65,46.95,4.3,46.4,6.93
Blackwater,59,GB,1578141427,75,51.33,-0.78,48.0,9.17
Tezu,81,IN,1578141427,96,27.93,96.16,57.07,2.91
Goderich,97,CA,1578141428,90,43.74,-81.71,34.0,1.99
Lasa,75,CY,1578141428,76,34.92,32.53,60.8,9.17
Perth,0,AU,1578141225,52,-31.95,115.86,68.0,16.11
Port Shepstone,0,ZA,1578141428,67,-30.74,30.45,83.57,9.86
Tashigang,100,CN,1578141428,40,29.3,88.13,10.8,7.54
El Cobre,40,VE,1578141428,69,8.04,-72.06,73.4,2.24
Gamboma,100,CG,1578141428,23,-1.87,15.88,91.8,5.17
Lubango,90,AO,1578141428,74,-14.92,13.49,62.6,13.87
Lensk,100,RU,1578141428,94,60.71,114.91,17.37,7.85
Komsomolskiy,98,RU,1578141428,96,67.55,63.78,25.27,15.84
Bilibino,0,RU,1578141428,48,68.06,166.44,-4.79,1.28
Tamworth,0,AU,1578141428,26,-31.09,150.93,93.2,10.29
Fort Nelson,90,CA,1578141428,76,58.81,-122.69,-4.0,11.41
Beringovskiy,0,RU,1578141428,74,63.05,179.32,-8.54,16.4
Anshun,98,CN,1578141429,93,26.25,105.93,54.93,9.24
Coquimbo,90,CL,1578141429,82,-29.95,-71.34,60.8,1.12
Stromness,90,CA,1578141429,96,42.87,-79.55,35.01,8.05
Pitsunda,53,GE,1578141429,50,43.16,40.34,51.8,2.24
Mercedes,0,UY,1578141429,65,-33.25,-58.03,73.99,1.99
